[
  {
    "city": "N’Djamena", 
    "lat": "12.1100", 
    "lng": "15.0500", 
    "country": "Chad", 
    "iso2": "TD", 
    "admin_name": "Ville de N’Djaména", 
    "capital": "primary", 
    "population": "1092066", 
    "population_proper": "1092066"
  }, 
  {
    "city": "Moundou", 
    "lat": "8.5667", 
    "lng": "16.0833", 
    "country": "Chad", 
    "iso2": "TD", 
    "admin_name": "Logone Occidental", 
    "capital": "admin", 
    "population": "142462", 
    "population_proper": "142462"
  }, 
  {
    "city": "Sarh", 
    "lat": "9.1500", 
    "lng": "18.3833", 
    "country": "Chad", 
    "iso2": "TD", 
    "admin_name": "Moyen-Chari", 
    "capital": "admin", 
    "population": "108061", 
    "population_proper": "108061"
  }, 
  {
    "city": "Kelo", 
    "lat": "9.3171", 
    "lng": "15.8000", 
    "country": "Chad", 
    "iso2": "TD", 
    "admin_name": "Tandjilé", 
    "capital": "", 
    "population": "96224", 
    "population_proper": "42533"
  }, 
  {
    "city": "Yao", 
    "lat": "12.8508", 
    "lng": "17.5608", 
    "country": "Chad", 
    "iso2": "TD", 
    "admin_name": "Batha", 
    "capital": "", 
    "population": "91507", 
    "population_proper": "91507"
  }, 
  {
    "city": "Abéché", 
    "lat": "13.8331", 
    "lng": "20.8347", 
    "country": "Chad", 
    "iso2": "TD", 
    "admin_name": "Ouaddaï", 
    "capital": "admin", 
    "population": "76492", 
    "population_proper": "76492"
  }, 
  {
    "city": "Goz-Beida", 
    "lat": "12.2236", 
    "lng": "21.4144", 
    "country": "Chad", 
    "iso2": "TD", 
    "admin_name": "Sila", 
    "capital": "admin", 
    "population": "66107", 
    "population_proper": "66107"
  }, 
  {
    "city": "Fianga", 
    "lat": "9.9153", 
    "lng": "15.1375", 
    "country": "Chad", 
    "iso2": "TD", 
    "admin_name": "Mayo-Kébbi Est", 
    "capital": "", 
    "population": "42606", 
    "population_proper": "42606"
  }, 
  {
    "city": "Koumra", 
    "lat": "8.9000", 
    "lng": "17.5500", 
    "country": "Chad", 
    "iso2": "TD", 
    "admin_name": "Mandoul", 
    "capital": "admin", 
    "population": "39852", 
    "population_proper": "39852"
  }, 
  {
    "city": "Pala Oua", 
    "lat": "9.3500", 
    "lng": "14.9667", 
    "country": "Chad", 
    "iso2": "TD", 
    "admin_name": "Mayo-Kébbi Ouest", 
    "capital": "", 
    "population": "38975", 
    "population_proper": "38975"
  }, 
  {
    "city": "Am-Timan", 
    "lat": "11.0333", 
    "lng": "20.2833", 
    "country": "Chad", 
    "iso2": "TD", 
    "admin_name": "Salamat", 
    "capital": "admin", 
    "population": "38261", 
    "population_proper": "38261"
  }, 
  {
    "city": "Doba", 
    "lat": "8.6500", 
    "lng": "16.8500", 
    "country": "Chad", 
    "iso2": "TD", 
    "admin_name": "Logone Oriental", 
    "capital": "admin", 
    "population": "29597", 
    "population_proper": "24336"
  }, 
  {
    "city": "Bongor", 
    "lat": "10.2806", 
    "lng": "15.3722", 
    "country": "Chad", 
    "iso2": "TD", 
    "admin_name": "Mayo-Kébbi Est", 
    "capital": "admin", 
    "population": "27770", 
    "population_proper": "27770"
  }, 
  {
    "city": "Mongo", 
    "lat": "12.1837", 
    "lng": "18.7000", 
    "country": "Chad", 
    "iso2": "TD", 
    "admin_name": "Guéra", 
    "capital": "admin", 
    "population": "27763", 
    "population_proper": "27763"
  }, 
  {
    "city": "Oum Hadjer", 
    "lat": "13.2833", 
    "lng": "19.6833", 
    "country": "Chad", 
    "iso2": "TD", 
    "admin_name": "Batha", 
    "capital": "", 
    "population": "26136", 
    "population_proper": "26136"
  }, 
  {
    "city": "Ati", 
    "lat": "13.2139", 
    "lng": "18.3403", 
    "country": "Chad", 
    "iso2": "TD", 
    "admin_name": "Batha", 
    "capital": "admin", 
    "population": "20695", 
    "population_proper": "20695"
  }, 
  {
    "city": "Laï", 
    "lat": "9.4000", 
    "lng": "16.3000", 
    "country": "Chad", 
    "iso2": "TD", 
    "admin_name": "Tandjilé", 
    "capital": "admin", 
    "population": "19382", 
    "population_proper": "19382"
  }, 
  {
    "city": "Mao", 
    "lat": "14.1194", 
    "lng": "15.3133", 
    "country": "Chad", 
    "iso2": "TD", 
    "admin_name": "Kanem", 
    "capital": "admin", 
    "population": "19004", 
    "population_proper": "19004"
  }, 
  {
    "city": "Moussoro", 
    "lat": "13.6333", 
    "lng": "16.4833", 
    "country": "Chad", 
    "iso2": "TD", 
    "admin_name": "Barh el Gazel", 
    "capital": "admin", 
    "population": "16349", 
    "population_proper": "16349"
  }, 
  {
    "city": "Faya", 
    "lat": "17.9300", 
    "lng": "19.1031", 
    "country": "Chad", 
    "iso2": "TD", 
    "admin_name": "Borkou", 
    "capital": "admin", 
    "population": "13400", 
    "population_proper": "13400"
  }, 
  {
    "city": "Bol", 
    "lat": "13.4586", 
    "lng": "14.7147", 
    "country": "Chad", 
    "iso2": "TD", 
    "admin_name": "Lac", 
    "capital": "admin", 
    "population": "11700", 
    "population_proper": "11700"
  }, 
  {
    "city": "Biltine", 
    "lat": "14.5333", 
    "lng": "20.9167", 
    "country": "Chad", 
    "iso2": "TD", 
    "admin_name": "Wadi Fira", 
    "capital": "admin", 
    "population": "11000", 
    "population_proper": "2365"
  }, 
  {
    "city": "Massenya", 
    "lat": "11.4028", 
    "lng": "16.1700", 
    "country": "Chad", 
    "iso2": "TD", 
    "admin_name": "Chari-Baguirmi", 
    "capital": "admin", 
    "population": "3680", 
    "population_proper": "3680"
  }, 
  {
    "city": "Fada", 
    "lat": "17.1833", 
    "lng": "21.5833", 
    "country": "Chad", 
    "iso2": "TD", 
    "admin_name": "Ennedi-Ouest", 
    "capital": "admin", 
    "population": "448", 
    "population_proper": "448"
  }, 
  {
    "city": "Pala", 
    "lat": "9.3646", 
    "lng": "14.9073", 
    "country": "Chad", 
    "iso2": "TD", 
    "admin_name": "Mayo-Kébbi Ouest", 
    "capital": "admin", 
    "population": "", 
    "population_proper": ""
  }, 
  {
    "city": "Massakory", 
    "lat": "13.0000", 
    "lng": "15.7333", 
    "country": "Chad", 
    "iso2": "TD", 
    "admin_name": "Hadjer-Lamis", 
    "capital": "admin", 
    "population": "", 
    "population_proper": ""
  }, 
  {
    "city": "Amdjarass", 
    "lat": "16.0667", 
    "lng": "22.8354", 
    "country": "Chad", 
    "iso2": "TD", 
    "admin_name": "Ennedi-Est", 
    "capital": "admin", 
    "population": "", 
    "population_proper": ""
  }, 
  {
    "city": "Bardaï", 
    "lat": "21.3547", 
    "lng": "17.0016", 
    "country": "Chad", 
    "iso2": "TD", 
    "admin_name": "Tibesti", 
    "capital": "admin", 
    "population": "", 
    "population_proper": ""
  }
]